$GPGGA,112404.00,6003.1071858,N,03017.8198064,E,1,17,0.7,23.025,M,15.996,M,,*53
$GPGGA,112404.20,6003.1071918,N,03017.8198076,E,1,17,0.7,23.030,M,15.996,M,,*53
$GPGGA,112404.40,6003.1071901,N,03017.8198012,E,1,17,0.7,23.012,M,15.996,M,,*5F
$GPGGA,112404.60,6003.1071952,N,03017.8197891,E,1,17,0.7,23.017,M,15.996,M,,*52
$GPGGA,112404.80,6003.1071993,N,03017.8197889,E,1,17,0.7,23.010,M,15.996,M,,*5F
$GPGGA,112405.00,6003.1072088,N,03017.8197874,E,1,17,0.7,23.001,M,15.996,M,,*54
$GPGGA,112405.20,6003.1072130,N,03017.8197872,E,1,17,0.7,23.007,M,15.996,M,,*54
$GPGGA,112405.40,6003.1072197,N,03017.8197870,E,1,17,0.7,23.001,M,15.996,M,,*5B
$GPGGA,112405.60,6003.1072194,N,03017.8197798,E,1,17,0.7,23.003,M,15.996,M,,*51
$GPGGA,112405.80,6003.1072200,N,03017.8197713,E,1,17,0.7,23.000,M,15.996,M,,*51
$GPGGA,112406.00,6003.1072264,N,03017.8197774,E,1,17,0.7,22.999,M,15.996,M,,*51
$GPGGA,112406.20,6003.1072303,N,03017.8197825,E,1,17,0.7,22.999,M,15.996,M,,*58
$GPGGA,112406.40,6003.1072385,N,03017.8197749,E,1,17,0.7,23.002,M,15.996,M,,*5F
$GPGGA,112406.60,6003.1072380,N,03017.8197668,E,1,17,0.7,22.994,M,15.996,M,,*5D
$GPGGA,112406.80,6003.1072413,N,03017.8197688,E,1,17,0.7,22.996,M,15.996,M,,*52
$GPGGA,112407.00,6003.1072466,N,03017.8197659,E,1,17,0.7,22.992,M,15.996,M,,*51
$GPGGA,112407.20,6003.1072479,N,03017.8197645,E,1,17,0.7,22.981,M,15.996,M,,*52
$GPGGA,112407.40,6003.1072581,N,03017.8197682,E,1,17,0.7,23.006,M,15.996,M,,*5E
$GPGGA,112407.60,6003.1072635,N,03017.8197642,E,1,17,0.7,22.998,M,15.996,M,,*53
$GPGGA,112407.80,6003.1072575,N,03017.8197504,E,1,17,0.7,22.976,M,15.996,M,,*5B
$GPGGA,112408.00,6003.1072604,N,03017.8197452,E,1,17,0.7,22.970,M,15.996,M,,*5D
$GPGGA,112408.20,6003.1072649,N,03017.8197536,E,1,16,0.7,22.967,M,15.996,M,,*52
$GPGGA,112408.40,6003.1072714,N,03017.8197516,E,1,16,0.7,22.970,M,15.996,M,,*59
$GPGGA,112408.60,6003.1072748,N,03017.8197430,E,1,16,0.7,22.964,M,15.996,M,,*52
$GPGGA,112408.80,6003.1072738,N,03017.8197390,E,1,16,0.7,22.959,M,15.996,M,,*58
$GPGGA,112409.00,6003.1072757,N,03017.8197406,E,1,16,0.7,22.950,M,15.996,M,,*59
$GPGGA,112409.20,6003.1072750,N,03017.8197433,E,1,17,0.7,22.927,M,15.996,M,,*5B
$GPGGA,112409.40,6003.1072783,N,03017.8197391,E,1,17,0.7,22.931,M,15.996,M,,*5B
$GPGGA,112409.60,6003.1072829,N,03017.8197398,E,1,17,0.7,22.931,M,15.996,M,,*5F
$GPGGA,112409.80,6003.1072848,N,03017.8197361,E,1,17,0.7,22.931,M,15.996,M,,*50
$GPGGA,112410.00,6003.1072840,N,03017.8197306,E,1,17,0.7,22.909,M,15.996,M,,*52
$GPGGA,112410.20,6003.1072862,N,03017.8197337,E,1,17,0.7,22.893,M,15.996,M,,*50
$GPGGA,112410.40,6003.1072898,N,03017.8197334,E,1,17,0.7,22.888,M,15.996,M,,*5A
$GPGGA,112410.60,6003.1072990,N,03017.8197347,E,1,17,0.7,22.907,M,15.996,M,,*53
$GPGGA,112410.80,6003.1073040,N,03017.8197297,E,1,17,0.7,22.894,M,15.996,M,,*5F
$GPGGA,112411.00,6003.1073055,N,03017.8197268,E,1,17,0.7,22.889,M,15.996,M,,*5E
$GPGGA,112411.20,6003.1073067,N,03017.8197226,E,1,17,0.7,22
$GPGGA,112411.40,6003.1073045,N,03017.8197141,E,1,17,0.7,22.855,M,15.996,M,,*52
$GPGGA,112411.60,6003.1073186,N,03017.8197150,E,1,17,0.7,22.880,M,15.996,M,,*56
$GPGGA,112411.80,6003.1073230,N,03017.8197162,E,1,17,0.7,22.876,M,15.996,M,,*5E
$GPGGA,112412.00,6003.1073282,N,03017.8197148,E,1,17,0.7,22.873,M,15.996,M,,*51
$GPGGA,112412.20,6003.1073290,N,03017.8197052,E,1,17,0.7,22.871,M,15.996,M,,*58
$GPGGA,112412.40,6003.1073283,N,03017.8196990,E,1,17,0.7,22.861,M,15.996,M,,*5B
$GPGGA,112412.60,6003.1073360,N,03017.8197002,E,1,17,0.7,22.875,M,15.996,M,,*53
$GPGGA,112412.80,6003.1073445,N,03017.8197002,E,1,17,0.7,22.873,M,15.996,M,,*5B
$GPGGA,112413.00,6003.1073476,N,03017.8197018,E,1,17,0.7,22.880,M,15.996,M,,*55
$GPGGA,112413.20,6003.1073481,N,03017.8196969,E,1,17,0.7,22.880,M,15.996,M,,*51
$GPGGA,112413.40,6003.1073498,N,03017.8196808,E,1,17,0.7,22.870,M,15.996,M,,*56
$GPGGA,112413.60,6003.1073518,N,03017.8196867,E,1,17,0.7,22.855,M,15.996,M,,*53
$GPGGA,112413.80,6003.1073661,N,03017.8196923,E,1,17,0.7,22.878,M,15.996,M,,*5E
$GPGGA,112414.00,6003.1073682,N,03017.8196889,E,1,17,0.7,22.876,M,15.996,M,,*53
$GPGGA,112414.20,6003.1073633,N,03017.8196810,E,1,17,0.7,22.856,M,15.996,M,,*59
$GPGGA,112414.40,6003.1073644,N,03017.8196693,E,1,17,0.7,22.860,M,15.996,M,,*5F
$GPGGA,112414.60,6003.1073698,N,03017.8196643,E,1,17,0.7,22.845,M,15.996,M,,*56
$GPGGA,112414.80,6003.1073784,N,03017.8196700,E,1,17,0.7,22.846,M,15.996,M,,*51
$GPGGA,112415.00,6003.1073817,N,03017.8196684,E,1,17,0.7,22.842,M,15.996,M,,*54
$GPGGA,112415.20,6003.1073808,N,03017.8196631,E,1,17,0.7,22.841,M,15.996,M,,*55
$GPGGA,112415.40,6003.1073823,N,03017.8196449,E,1,17,0.7,22.834,M,15.996,M,,*55
$GPGGA,112415.60,6003.1073856,N,03017.8196459,E,1,17,0.7,22.836,M,15.
$GPGGA,112415.80,6003.1073951,N,03017.8196525,E,1,17,0.7,22.822,M,15.996,M,
$GPGGA,112416.00,6003.1073956,N,03017.8196509,E,1,17,0.7,22.813,M,15.996,M,,*51
$GPGGA,112416.20,6003.1074000,N,03017.8196354,E,1,17,0.7,22.822,M,15.996,M,,*52
$GPGGA,112416.40,6003.1074034,N,03017.8196284,E,1,17,0.7,22.816,M,15.996,M,,*58
$GPGGA,112416.60,6003.1074061,N,03017.81
$GPGGA,112416.80,6003.1074139,N,03017.8196278,E,1,17,0.7,22.817,M,15.996,M,,*5A
$GPGGA,112417.00,6003.1074141,N,03017.8196248,E,1,17,0.7,22.808,M,15.996,M,,*51
$GPGGA,112417.20,6003.1074191,N,03017.8196162,E,
$GPGGA,112417.40,6003.1074221,N,03017.8196052,E,1,17,0.7,22.805,M,15.996,M,,*54
$GPGGA,112417.60,6003.1074247,N,03017.8196030,E,1,17,0.7,22.792,M,15.996,M,,*53
$GPGGA,112417.80,6003.1074229,N,03017.8196045,E,1,17,0.7,22.780,M,15.996,M,,*54
$GPGGA,112418.00,6003.1074343,N,03017.8195974,E,1,17,0.7,22.789,M,15.996,M,,*5F
$GPGGA,112418.20,6003.1074357,N,03017.8195877,E,1,17,0.7,22.790,M,15.996,M,,*52
$GPGGA,112418.40,6003.1074419,N,03017.8195910,E,1,17,0.7,22.781,M,15.996,M,,*59
$GPGGA,112418.60,6003.1074414,N,03017.8195828,E,1,17,0.7,22.776,M,15.996,M,,*54
$GPGGA,112418.80,6003.1074447,N,03017.8195729,E,1,17,0.7,22.772,M,15.996,M,,*56
$GPGGA,112419.00,6003.1074497,N,03017.8195731,E,1,17,0.7,22.759,M,15.996,M,,*52
$GPGGA,112419.20,6003.1074531,N,03017.8195729,E,1,17,0.7,22.757,M,15.996,M,,*5A
$GPGGA,112419.40,6003.1074628,N,03017.8195671,E,1,17,0.7,22.775,M,15.996,M,,*5B
$GPGGA,112419.60,6003.1074633,N,03017.8195573,E,1,17,0.7,22.752,M,15.996,M,,*57
$GPGGA,112419.80,6003.1074621,N,03017.8195497,E,1,17,0.7,22.743,M,15.996,M,,*51
$GPGGA,112420.00,6003.1074676,N,03017.8195434,E,1,17,0.7,22.748,M,15.996,M,,*53
$GPGGA,112420.20,6003.1074727,N,03017.8195415,E,1,17,0.7,22.744,M,15.996,M,,*5B
$GPGGA,112420.40,6003.1074801,N,03017.8195422,E,1,17,0.7,22.745,M,15.996,M,,*53
$GPGGA,112420.60,6003.1074829,N,03017.8195329,E,1,17,0.7,22.746,M,15.996,M,,*54
$GPGGA,112420.80,6003.1074860,N,03017.8195206,E,1,17,0.7,22.754,M,15.996,M,,*58
$GPGGA,112421.00,6003.1074920,N,03017.8195146,E,1,17,0.7,22.747,M,15.996,M,,*51
$GPGGA,112421.20,6003.1074953,N,03017.8195168,E,1,16,0.7,22.750,M,15.996,M,,*5C
$GPGGA,112421.40,6003.1075005,N,03017.8195090,E,1,16,0.7,22.747,M,15.996,M,,*51
$GPGGA,112421.60,6003.1075034,N,03017.8194983,E,1,16,0.7,
$GPGGA,112421.80,6003.1075108,N,03017.8194895,E,1,16,0.7,22.744,M,15.996,M,,*5E
$GPGGA,112422.00,6003.1075142,N,03017.8194862,E,1,16,0.7,22.749,M,15.996,M,,*5E
$GPGGA,112422.20,6003.1075198,N,03017.8194760,E,1,16,0.7,22.749,M,15.996,M,,*56
$GPGGA,112422.40,6003.1075250,N,03017.8194701,E,1,16,0.7,22.748,M,15.996,M,,*51
$GPGGA,112422.60,6003.1075259,N,03017.8194636,E,1,16,0.7,22.735,M,15.996,M,,*55
$GPGGA,112422.80,6003.1075326,N,03017.8194589,E,1,16,0.7,22.738,M,15.996,M,,*58
$GPGGA,112423.00,6003.1075394,N,03017.8194515,E,1,16,0.7,22.736,M,15.996,M,,*53
$GPGGA,112423.20,6003.1075418,N,03017.8194454,E,1,16,0.7,22.738,M,15.996,M,,*58
$GPGGA,112423.40,6003.1075441,N,03017.8194329,E,1,16,0.7,22.721,M,15.996,M,,*57
$GPGGA,112423.60,6003.1075504,N,03017.8194364,E,1,16,0.7,22.732,M,15.996,M,,*5E
$GPGGA,112423.80,6003.1075553,N,03017.8194284,E,1,16,0.7,22.724,M,15.996,M,,*5A
$GPGGA,112424.00,6003.1075583,N,03017.8194122,E,1,16,0.7,22.724,M,15.996,M,,*57
$GPGGA,112424.20,6003.1075631,N,03017.8194091,E,1,16,0.7,22.719,M,15.996,M,,*58
$GPGGA,112424.40,6003.1075655,N,03017.8194037,E,1,17,0.7,22.722,M,15.996,M,,*59
$GPGGA,112424.60,6003.1075685,N,03017.8193945,E,1,17,0.7,22.706,M,15.996,M,,*5B
$GPGGA,112424.80,6003.1075723,N,03017.8193848,E,1,17,0.7,22.712,M,15.996,M,,*51
$GPGGA,112425.00,6003.1075760,N,03017.8193816,E,1,17,0.7,22.717,M,15.996,M,,*51
$GPGGA,112425.20,6003.1075812,N,03017.8193704,E,1,17,0.7,22.711,M,15.996,M,,*53
$GPGGA,112425.40,6003.1075881,N,03017.8193595,E,1,17,0.7,22.702,M,15.996,M,,*57
$GPGGA,112425.60,6003.1075938,N,03017.8193580,E,1,17,0.7,22.708,M,15.996,M,,*58
$GPGGA,112425.80,6003.1075927,N,03017.8193533,E,1,17,0.7,22.707,M,15.996,M,,*5F
$GPGGA,112426.00,6003.1075960,N,03017.8193390,E,1,17,0.7,22.707,M,15.996,M,,*58
$GPGGA,112426.20,6003.1076006,N,03017.8193267,E,1,16,0.7,22.708,M,15.996,M,,*57
$GPGGA,112426.40,6003.1076080,N,03017.8193269,E,1,16,0.7,22.702,M,15.996,M,,*5B
$GPGGA,112426.60,6003.1076078,N,03017.8193233,E,1,16,0.7,22.702,M,15.996,M,,*51
$GPGGA,112426.80,6003.1076121,N,03017.8193050,E,1,16,0.7,22.708,M,15.996,M,,*5F
$GPGGA,112427.00,6003.1076124,N,03017.8193005,E,1,16,0.7,22.698,M,15.996,M,,*5B
$GPGGA,112427.20,6003.1076191,N,03017.8192950,E,1,16,0.7,22.694,M,15.996,M,,*53
$GPGGA,112427.40,6003.1076229,N,03017.8192909,E,1,16,0.7,22.698,M,15.996,M,,*55
$GPGGA,112427.60,6003.1076291,N,03017.8192817,E,1,17,0.7,22.706,M,15.996,M,,*5D
$GPGGA,112427.80,6003.1076287,N,03017.8192665,E,1,17,0.7,22.689,M,15.996,M,,*59
$GPGGA,112428.00,6003.1076294,N,03017.8192566,E,1,17,0.7,22.676,M,15.996,M,,*5C
$GPGGA,112428.20,6003.1076292,N,03017.8192500,E,1,17,0.7,22.652,M,15.996,M,,*5E
$GPGGA,112428.40,6003.1076344,N,03017.8192417,E,1,17,0.7,22.657,M,15.996,M,,*50
$GPGGA,112428.60,6003.1076388,N,03017.8192252,E,1,17,0.7,22.662,M,15.996,M,,*53
$GPGGA,112428.80,6003.1076363,N,03017.8192094,E,1,17,0.7,22.655,M,15.996,M,,*54
$GPGGA,112429.00,6003.1076391,N,03017.8192067,E,1,17,0.7,22.640,M,15.996,M,,*58
$GPGGA,112429.20,6003.1076384,N,03017.8191955,E,1,17,0.7,22.644,M,15.996,M,,*51
$GPGGA,112429.40,6003.1076451,N,03017.8191836,E,1,17,0.7,22.635,M,15.996,M,,*5A
$GPGGA,112429.60,6003.1076486,N,03017.8191719,E,1,17,0.7,22.636,M,15.996,M,,*53
$GPGGA,112429.80,6003.1076511,N,03017.8191683,E,1,17,0.7,22.632,M,15.996,M,,*54
$GPGGA,112430.00,6003.1076519,N,03017.8191568,E,1,17,0.7,22.621,M,15.996,M,,*58
$GPGGA,112430.20,6003.1076552,N,03017.8191456,E,1,17,0.7,22.624,M,15.996,M,,
$GPGGA,112430.40,6003.1076622,N,03017.8191369,E,1,17,0.7,22.623,M,15.996,M,,*52
$GPGGA,112430.60,6003.1076624,N,03017.8191247,E,1,17,0.7,22.621,M,15.996,M,,*59
$GPGGA,112430.80,6003.1076652,N,03017.8191202,E,1,17,0.7,22.621,M,15.996,M,,*57
$GPGGA,112431.00,6003.1076618,N,03017.8191045,E,1,17,0.7,22.604,M,15.996,M,,*56
$GPGGA,112431.20,6003.1076752,N,03017.8190903,E,1,17,0.7,22.609,M,15.996,M,,*5C
$GPGGA,112431.40,6003.1076743,N,03017.8190847,E,1,17,0.7,22.6
$GPGGA,112431.60,6003.1076716,N,03017.8190681,E,1,17,0.7,22.591,M,15.996,M,,*5F
$GPGGA,112431.80,6003.1076693,N,03017.8190533,E,1,17,0.7,22.587,M,15.996,M,,*50
$GPGGA,112432.00,6003.1076757,N,03017.8190437,E,1,17,0.7,22.567,M,15.996,M,,*59
$GPGGA,112432.20,6003.1076812,N,03017.8190383,E,1,17,0.7,22.580,M,15.996,M,,*54
$GPGGA,112432.40,6003.1076810,N,03017.8190248,E,1,17,0.7,22.579,M,15.996,M,,*50
$GPGGA,112432.60,6003.1076832,N,03017.8190117,E,1,17,0.7,22.562,M,15.996,M,,*51
$GPGGA,112432.80,6003.1076843,N,03017.8190015,E,1,17,0.7,22.553,M,15.996,M,,*58
$GPGGA,112433.00,6003.1076894,N,03
$GPGGA,112433.20,6003.1076935,N,03017.8189767,E,1,16,0.7,22.543,M,15.996,M,,*59
$GPGGA,112433.40,6003.1076947,N,03017.8189652,E,1,16,0.7,22.554,M,15.996,M,,*5B
$GPGGA,112433.60,6003.1076986,N,03017.8189552,E,1,16,0.7,22.540,M,15.
$GPGGA,112433.80,6003.1077012,N,03017.8189415,E,1,16,0.7,22.537,M,15.996,M,,*5B
$GPGGA,112434.00,6003.1077051,N,03017.8189330,E,1,16,0.7,22.5
$GPGGA,112434.20,6003.1077067,N,03017.8189260,E,1,16,0.7,22.519,M,15.996,M,,*5C
$GPGGA,112434.40,6003.1077073,N,03017.8189135,E,1,16,0.7,22.507,M,15.996,M,,*53
$GPGGA,112434.60,6003.1077090,N,03017.8188969,E,1,16,0.7,22.512,M,15.996,M,,*58
$GPGGA,112434.80,6003.1077103,N,03017.8188887,E,1,16,0.7,22.519,M,15.996,M,,*57
$GPGGA,112435.00,6003.1077147,N,03017.8188771,E,1,16,0.7,22.501,M,15.996,M,,*51
$GPGGA,112435.20,6003.1077179,N,03017.8188692,E,1,16,0.7,22.509,M,15.996,M,,*5A
$GPGGA,112435.40,6003.1077197,N,03017.8188538,E,1,16,0.7,22.513,M,15.996,M,,*54
$GPGGA,112435.60,6003.1077162,N,03017.8188342,E,1,16,0.7,22.489,M,15.996,M,,*55
$GPGGA,112435.80,6003.1077265,N,03017.8188263,E,1,16,0.7,22.498,M,15.996,M,,*5D
$GPGGA,112436.00,6003.1077291,N,03017.8188203,E,1,16,0.7,22.501,M,15.996,M,,*5A
$GPGGA,112436.20,6003.1077275,N,03017.8188031,E,1,16,0.7,22.478,M,15.996,
$GPGGA,112436.40,6003.1077273,N,03017.8187927,E,1,16,0.7,22.467,M,15.996,M,,*51
$GPGGA,112436.60,6003.1077302,N,03017.8187752,E,1,16,0.7,22.470,M,15.996,M,,*5E
$GPGGA,112436.80,6003.1077399,N,03017.8187632,E,1,16,0.7,22.475,M,15.996,M,,*50
$GPGGA,112437.00,6003.1077415,N,03017.8187469,E,1,17,0.7,22.465,M,15.996,M,,*56
$GPGGA,112437.20,6003.1077447,N,03017.8187370,E,1,17,0.7,22.455,M,15.996,M,,*5F
$GPGGA,112437.40,6003.1077497,N,03017.8187216,E,1,17,0.7,22.455,M,15.996,M,,*55
$GPGGA,112437.60,6003.1077455,N,03017.8187050,E,1,17,0.7,22.438,M,15.996,M,,*52
$GPGGA,112437.80,6003.1077522,N,03017.8186883,E,1,17,0.7,22.439,M,15.996,M,,*5B
$GPGGA,112438.00,6003.1077552,N,03017.8186763,E,1,17,0.7,22.443,M,15.996,M,,*57
$GPGGA,112438.20,6003.1077616,N,03017.8186623,E,1,17,0.7,22.429,M,15.996,M,,*5F
$GPGGA,112438.40,6003.1077673,N,03017.8186500,E,1,17,0.7,22.432,M,15.996,M,,*52
$GPGGA,112438.60,6003.1077678,N,03017.8186372,E,1,17,0.7,22.427,M,15.996,M,,*5C
$GPGGA,112438.80,6003.1077678,N,03017.8186215,E,1,17,0.7,22.416,M,15.996,M,,*50
$GPGGA,112439.00,6003.1077700,N,03017.8186027,E,1,17,0.7,22.405,M,15.996,M,,*56
$GPGGA,112439.20,6003.1077757,N,03017.8185930,E,1,17,0.7,22.415,M,15.996,M,,*5B
$GPGGA,112439.40,6003.1077845,N,03017.8185843,E,1,17,0.7,22.401,M,15.996,M,,*51
$GPGGA,112439.60,6003.1077849,N,03017.8185708,E,1,17,0.7,22.406,M,15.996,M,,*58
$GPGGA,112439.80,6003.1077865,N,03017.8185555,E,1,17,0.7,22.404,M,15.996,M,,*50
$GPGGA,112440.00,6003.1077960,N,03017.8185424,E,1,17,0.7,22.414,
$GPGGA,112440.20,6003.1078003,N,03017.8185338,E,1,17,0.7,22.408,M,15.996,M,,*52
$GPGGA,112440.40,6003.1078060,N,03017.8185197,E,1,17,0.7,22.404,M,15.996,M,,*5A
$GPGGA,112440.60,6003.1078084,N,03017.8185079,E,1,17,0.7,22.418,M,15.996,M,,*5E
$GPGGA,112440.80,6003.1078158,N,03017.8184926,E,1,17,0.7,22.423,M,15.996,M,,*5A
$GPGGA,112441.00,6003.1078193,N,03017.8184778,E,1,17,0.7,22.414,M,15.996,M,,*55
$GPGGA,112441.20,6003.1078287,N,03017.8184663,E,1,16,0.7,22.417,M,15.996,M,,*58
$GPGGA,112441.40,6003.1078281,N,03017.8184585,E,1,1
$GPGGA,112441.60,6003.1078315,N,03017.8184401,E,1,16,0.7,22.420,M,15.996,M,,*54
$GPGGA,112441.80,6003.1078358,N,03017.8184222,E,1,16,0.7,22.398,M,15.996,M,,*50
$GPGGA,112442.00,6003.1078439,N,03017.8184122,E,1,16,0.7,22.414,M,15.996,M,,*5B
$GPGGA,112442.20,6003.1078538,N,03017.8183989,E,1,16,0.7,22.412,M,15.996,M,,*51
$GPGGA,112442.40,6003.1078591,N,03017.8183732,E,1,16,0.7,22.409,M,15.996,M,,*50
$GPGGA,112442.60,6003.1078583,N,03017.8183591,E,1,16,0.7,22.402,M,15.996,M,,*51
$GPGGA,112442.80,6003.1078603,N,03017.8183459,E,1,17,0.7,22.395,M,15.996,M,,*59
$GPGGA,112443.00,6003.1078703,N,03017.8183321,E,1,17,0.7,22.387,M,15.996,M,,*5A
$GPGGA,112443.20,6003.1078785,N,03017.8183110,E,1,17,0.7,22.397,M,15.996,M,,*57
$GPGGA,112443.40,6003.1078759,N,03017.8182973,E,1,17,0.7,22.398,M,15.996,M,,*53
$GPGGA,112443.60,6003.1078782,N,03017.8182767,E,1,17,0.7,22.389,M,15.996,M,,*5C
$GPGGA,112443.80,6003.1078849,N,03017.8182653,E,1,17,0.7,22.375,M,15.996,M,,*5F
$GPGGA,112444.00,6003.1078857,N,03017.8182456,E,1,17,0.7,22.367,M,15.996,M,,*5B
$GPGGA,112444.20,6003.1078995,N,03017.8182264,E,1,17,0.7,22.375,M,15.996,M,,*52
$GPGGA,112444.40,6003.1079045,N,03017.8182132,E,1,17,0.7,22.384,M,15.996,M,,*5F
$GPGGA,112444.60,6003.1079053,N,03017.8181956,E,1,17,0.7,22.357,M,15.996,M,,*5D
$GPGGA,112444.80,6003.1079084,N,03017.8181810,E,1,17,0.7,22.349,M,15.996,M,,*55
$GPGGA,112445.00,6003.1079148,N,03017.8181579,E,1,17,0.7,22.351,M,15.996,M,,*56
$GPGGA,112445.20,6003.1079186,N,03017.8181325,E,1,17,0.7,22.337,M,15.996,M,,*59
$GPGGA,112445.40,6003.1079147,N,03017.8181154,E,1,17,0.7,22.332,M,15.996,M,,*53
$GPGGA,112445.60,6003.1079197,N,03017.8180931,E,1,17,0.7,22.325,M,15.996,M,,*50
$GPGGA,112445.80,6003.1079225,N,03017.8180702,E,1,17,0.7,22.329,M,15.996,M,,*56
$GPGGA,112446.00,6003.1079314,N,03017.8180432,E,1,17,0.7,22.333,M,15.996,M,,*55
$GPGGA,112446.20,6003.1079334,N,03017.8180189,E,1,16,0.7,22.328,M,15.996,M,,*5B
$GPGGA,112446.40,6003.1079367,N,03017.8179970,E,1,16,0.7,22.322,M,15.996,M,,*59
$GPGGA,112446.60,6003.1079342,N,03017.8179702,E,1,16,0.7,22.308,M,15.996,M,
$GPGGA,112446.80,6003.1079354,N,03017.8179445,E,1,16,0.7,22.316,M,15.996,M,,*59
$GPGGA,112447.00,6003.1079445,N,03017.8179143,E,1,16,0.7,22.317,M,15.996,M,,*55
$GPGGA,112447.20,6003.1079509,N,03017.8178885,E,1,16,0.7,22.318,M,15.996,M,,*53
$GPGGA,112447.40,6003.1079537,N,03017.8178551,E,1,16,0.7,22.309,M,15.996,M,,*5C
$GPGGA,112447.60,6003.1079496,N,03017.8178344,E,1,16,0.7,22.310,M,15.996,M,,*5E
$GPGGA,112447.80,6003.1079548,N,03017.8178024,E,1,16,0.7,22.304,M,15.996,M,,*52
$GPGGA,112448.00,6003.1079588,N,03017.8177716,E,1,16,0.7,22.304,M,15.996,M,,*50
$GPGGA,112448.20,6003.1079694,N,03017.8177357,E,1,16,0.7,22.321,M,15.996,M,,*5A
$GPGGA,112448.40,6003.1079684,N,03017.8177082,E,1,16,0.7,22.304,M,15.996,M,,*51
$GPGGA,112448.60,6003.1079729,N,03017.8176728,E,1,16,0.7,22.299,M,15.996,M,,*56
$GPGGA,112448.80,6003.1079734,N,03017.8176432,E,1,16,0.7,22.311,
$GPGGA,112449.00,6003.1079789,N,03017.8176018,E,1,16,0.7,22.303,M,15.996,M,,*5D
$GPGGA,112449.20,6003.1079829,N,03017.8175686,E,1,16,0.7,22.300,M,15.996,M,,*5B
$GPGGA,112449.40,6003.1079858,N,03017.8175327,E,1,16,0.7,22.298,M,15.996,M,,*55
$GPGGA,112449.60,6003.1079824,N,03017.8174991,E,1,17,0.7,22.281,M,15.996,M,,*53
$GPGGA,112449.80,6003.1079888,N,03017.8174619,E,1,17,0.7,22.282,M,15.996,M,,*57
$GPGGA,112450.00,6003.1079951,N,03017.8174267,E,1,17,0.7,22.279,M,15.996,M,,*5B
$GPGGA,112450.20,6003.1079978,N,03017.8173865,E,1,17,0.7,22.276,M,15.996,M,,*52
$GPGGA,112450.40,6003.1079957,N,03017.8173534,E,1,17,0.7,22.270,M,15.996,M,,*56
$GPGGA,112450.60,6003.1079966,N,03017.8173190,E,1,17,0.7,22.265,M,15.996,M,,*58
$GPGGA,112450.80,6003.1080049,N,03017.8172835,E,1,17,0.7,22.270,M,15.996,M,,*57
$GPGGA,112451.00,6003.1080050,N,03017.8172454,E,1,17,0.7,22.273,M,15.996,M,,*5E
$GPGGA,112451.20,6003.1080099,N,03017.8172092,E,1,17,0.7,22.274,M,15.996,M,,*50
$GPGGA,112451.40,6003.1080080,N,03017.8171785,E,1,17,0.7,22.279,M,15.996,M,,*51
$GPGGA,112451.60,6003.1080076,N,03017.8171497,E,1,17,0.7,22.270,M,15.996,M,,*53
$GPGGA,112451.80,6003.1080108,N,03017.8171054,E,1,17,0.7,22.279,M,15.996,M,,*57
$GPGGA,112452.00,6003.1080202,N,03017.8170656,E,1,17,0.7,
$GPGGA,112452.20,6003.1080154,N,03017.8170371,E,1,17,0.7,22.268,M,15.996,M,,*52
$GPGGA,112452.40,6003.1080152,N,03017.8170094,E,1,17,0.7,22.269,M,15.996,M,,*5B
$GPGGA,112452.60,6003.1080242,N,03017.8169709,E,1,17,0.7,22.281,M,15.996,M,,*56
$GPGGA,112452.80,6003.1080266,N,03017.8169321,E,1,17,0.7,22.275,M,15.996,M,,*5B
$GPGGA,112453.00,6003.1080244,N,03017.8168949,E,1,17,0.7,22.278,M,15.996,M,,*5A
$GPGGA,112453.20,6003.1080288,N,03017.8168682,E,1,17,0.7,22.280,M,15.996,M,,*57
$GPGGA,112453.40,6003.1080301,N,03017.8168282,E,1,17,0.7,22.276,M,15.996,M,,*5C
$GPGGA,112453.60,6003.1080316,N,03017.8167919,E,1,17,0.7,22.277,M,15.996,M,,*5F
$GPGGA,112453.80,6003.1080318,N,03017.8167488,E,1,17,0.7,22.258,M,15.996,M,,*57
$GPGGA,112454.00,6003.1080336,N,03017.8167170,E,1,17
$GPGGA,112454.20,6003.1080344,N,03017.8166688,E,1,17,0.7,22.267,M,15.996,M,,*5C
$GPGGA,112454.40,6003.1080327,N,03017.8166290,E,1,17,0.7,22.264,M,15.996,M,,*51
$GPGGA,112454.60,6003.1080370,N,03017.8165893,E,1,17,0.7,22.267,M,15.996,M,,*58
$GPGGA,112454.80,6003.1080393,N,03017.8165507,E,1,17,0.7,22.252,M,15.996,M,,*5D
$GPGGA,112455.00,6003.1080394,N,03017.8165154,E,1,17,0.7,22.240,M,15.996,M,,*52
$GPGGA,112455.20,6003.1080385,N,03017.8164705,E,1,17,0.7,22.249,M,15.996,M,,*5A
$GPGGA,112455.40,6003.1080445,N,03017.8164325,E,1,17,0.7,22.225,M,15.996,M,,*5B
$GPGGA,112455.60,6003.1080501,N,03017.8163890,E,1,17,0.7,22.239,M,15.996,M,,*57
$GPGGA,112455.80,6003.1080593,N,03017.8163431,E,1,17,0.7,22.239,M,15.996,M,,*55
$GPGGA,112456.00,6003.1080545,N,03017.8163034,E,1,17,0.7,22.212,M,15.996,M,,*5D
$GPGGA,112456.20,6003.1080515,N,03017.8162635,E,1,16,0.7,22.210,M,15.996,M,,*5F
$GPGGA,112456.40,6003.1080570,N,03017.8162271,E,1,16,0.7,22.204,M,15.996,M,,*5B
$GPGGA,112456.60,6003.1080591,N,03017.8161837,E,1,16,0.7,22.203,M,15.996,M,,*5A
$GPGGA,112456.80,6003.1080630,N,03017.8161335,E,1,16,0.7,22.214,M,15.996,M,,*53
$GPGGA,112457.00,6003.1080595,N,03017.8160878,E,1,16,0.7,22.227,M,15.996,M,,*55
$GPGGA,112457.20,6003.1080591,N,03017.8160595,E,1,17,0.7,22.191,M,15.996,M,,*52
$GPGGA,112457.40,6003.1080580,N,03017.8160272,E,1,17,0.7,22.178,M,15.996,M,,*5D
$GPGGA,112457.60,6003.1080612,N,03017.8159770,E,1,17,0.7,22.200,M,15.996,M,,*56
$GPGGA,112457.80,6003.1080633,N,03017.8159310,E,1,17,0.7,22.205,M,15.996,M,,*5C
$GPGGA,112458.00,6003.1080597,N,03017.8158942,E,1,17,0.7,22.194,M,15.996,M,,*51
$GPGGA,112458.20,6003.1080616,N,03017.8158546,E,1,17,0.7,22.185,M,15.996,M,,*51
$GPGGA,112458.40,6003.1080647,N,03017.8158206,E,1,17,0.7,22.195,M,15.996,M,,*51
$GPGGA,112458.60,6003.1080617,N,03017.8157895,E,1,17,0.7,22.198,M,15.996,M,,*54
$GPGGA,112458.80,6003.1080603,N,03017.8157506,E,1,17,0.7,22.168,M,15.996,M,,*57
$GPGGA,112459.00,6003.1080669,N,03017.8157093,E,1,17,0.7,22.185,M,15.996,M,,*58
$GPGGA,112459.20,6003.1080701,N,03017.8156712,E,1,17,0.7,22.192,M,15.996,M,,*5C
$GPGGA,112459.40,6003.1080646,N,03017.8156383,E,1,17,0.7,22.184,M,15.996,M,,*53
$GPGGA,112459.60,6003.1080664,N,03017.8155999,E,1,17,0.7,22.164,M,15.996,M,,*5D
$GPGGA,112459.80,6003.1080743,N,03017.8155709,E,1,17,0.7,22.161,M,15.996,M,,*55
$GPGGA,112500.00,6003.1080770,N,03017.8155385,E,1,17,0.7,22.177,M,15.996,M,,*57
$GPGGA,112500.20,6003.1080736,N,03017.8155042,E,1,17,0.7,22.174,M,15.996,M,,*5C
$GPGGA,112500.40,6003.1080764,N,03017.8154604,E,1,17,0.7,22.195,M,15.996,M,,*57
$GPGGA,112500.60,6003.1080782,N,03017.8154286,E,1,17,0.7,22.188,M,15.996,M,,*5F
$GPGGA,112500.80,6003.1080795,N,03017.8154066,E,1,17,0.7,22.176,M,15.996,M,,*5A
$GPGGA,112501.00,6003.1080871,N,03017.8153728,E,1,17,0.7,22.172,M,15.996,M,,*58
$GPGGA,112501.20,6003.1080924,N,03017.8153376,E,1,17,0.7,22.178,M,15.996,M,,*5E
$GPGGA,112501.40,6003.1080879,N,03017.8153027,E,1,17,0.7,22.174,M,15.996,M,,*5A
$GPGGA,112501.60,6003.1080901,N,03017.8152721,E,1,17,0.7,22.174,M,15.996,M,,*56
$GPGGA,112501.80,6003.1080860,N,03017.8152453,E,1,17,0.7,22.178,M,15.996,M,,*54
$GPGGA,112502.00,6003.1080866,N,03017.8152070,E,1,17,0.7,22.169,M,15.996,M,,*5C
$GPGGA,112502.20,6003.1080960,N,03017.8151778,E,1,17,0.7,22.178,M,15.996,M,,*55
$GPGGA,112502.40,6003.1080993,N,03017.8151449,E,1,17,0.7,22.184,M,15.996,M,,*5D
$GPGGA,112502.60,6003.1080915,N,03017.8151176,E,1,17,0.7,22.180,M,15.996,M,,*5C
$GPGGA,112502.80,6003.1080851,N,03017.8150887,E,1,17,0.7,22.151,M,15.996,M,,*59
$GPGGA,112503.00,6003.1080856,N,03017.8150526,E,1,17,0.7,22.154,M,15.996,M,,*54
$GPGGA,112503.20,6003.1080960,N,03017.8150218,E,1,17,0.7,22.170,M,15.996,M,,*5E
$GPGGA,112503.40,6003.1080969,N,03017.8150005,E,1,17,0.7,22.165,M,15.996,M,,*5B
$GPGGA,112503.60,6003.1080926,N,03017.8149646,E,1,17,0.7,22.148,M,15.996,M,,*54
$GPGGA,112503.80,6003.1080882,N,03017.8149372,E,1,17,0.7,22.160,M,15.996,M,,*5D
$GPGGA,112504.00,6003.1080873,N,03017.8149056,E,1,17,0.7,22.172,M,15.996,M,,*5A
$GPGGA,112504.20,6003.1080890,N,03017.8148795,E,1,17,0.7,22.160,M,15.996,M,,*5F
$GPGGA,112504.40,6003.1080907,N,03017.8148438,E,1,17,0.7,22.149,M,15.996,M,,*59
$GPGGA,112504.60,6003.1080872,N,03017.8148160,E,1,17,0.7,22.165,M,15.996,M,,*5E
$GPGGA,112504.80,6003.1080842,N,03017.8147859,E,1,17,0.7,22.162,M,15.996,M,,*58
$GPGGA,112505.00,6003.1080846,N,03017.8147578,E,1,17,0.7,22.146,M,15.996,M,,*5D
$GPGGA,112505.20,6003.1080830,N,03017.8147303,E,1,17,0.7,22.143,M,15.996,M,,*51
$GPGGA,112505.40,6003.1080780,N,03017.8146948,E,1,17,0.7,22.133,M,15.996,M,,*50
$GPGGA,112505.60,6003.1080793,N,03017.8146532,E,1,17,0.7,22.124,M,15.996,M,,*57
$GPGGA,112505.80,6003.1080844,N,03017.8146274,E,1,17,0.7,22.135,M,15.996,M,,*59
$GPGGA,112506.00,6003.1080834,N,03017.8145984,E,1,17,0.7,22.131,M,15.996,M,,*56
$GPGGA,112506.20,6003.1080828,N,03017.8145671,E,1,17,0.7,22.128,M,15.996,M,,*54
$GPGGA,112506.40,6003.1080809,N,03017.8145460,E,1,17,0.7,22.131,M,15.996,M,,*5B
$GPGGA,112506.60,6003.1080862,N,03017.8145380,E,1,17,0.7,22.118,M,15.996,M,,*56
$GPGGA,112506.80,6003.1080968,N,03017.8145360,E,1,17,0.7,22.118,M,15.996,M,,*5D
$GPGGA,112507.00,6003.1081042,N,03017.8145420,E,1,17,0.7,22.133,M,15.996,M,,*5E
$GPGGA,112507.20,6003.1081062,N,03017.8145368,E,1,17,0.7,22.111,M,15.996,M,,*55
$GPGGA,112507.40,6003.1081073,N,03017.8145538,E,1,17,0.7,22.105,M,15.996,M,,*55
$GPGGA,112507.60,6003.1081206,N,03017.8145686,E,1,17,0.7,22.109,M,15.996,M,,*5D
$GPGGA,112507.80,6003.1081264,N,03017.8145822,E,1,17,0.7,22.124,M,15.996,M,,*58
$GPGGA,112508.00,6003.1081392,N,03017.8146121,E,1,17,0.7,22.111,M,15.996,M,,*58
$GPGGA,112508.20,6003.1081525,N,03017.8146585,E,1,17,0.7,22.113,M,15.996,M,,*58
$GPGGA,112508.40,6003.1081637,N,03017.8146952,E,1,17,0.7,22.129,M,15.996,M,,*51
$GPGGA,112508.60,6003.1081777,N,03017.8147285,E,1,17,0.7,22.127,M,15.996,M,,*58
$GPGGA,112508.80,6003.1081846,N,03017.8147891,E,1,17,0.7,22.090,M,15.996,M,,*59
$GPGGA,112509.00,6003.1081967,N,03017.8148492,E,1,17,0.7,22.126,M,15.996,M,,*5E
$GPGGA,112509.20,6003.1081971,N,03017.8149150,E,1,17,0.7,22.117,M,15.996,M,,*53
$GPGGA,112509.40,6003.1082056,N,03017.8149773,E,1,17,0.7,22.111,M,15.996,M,,*5B
$GPGGA,112509.60,6003.1082153,N,03017.8150584,E,1,17,0.7,22.130,M,15.996,M,,*5C
$GPGGA,112509.80,6003.1082263,N,03017.8151296,E,1,17,0.7,22.107,M,15.996,M,,*53
$GPGGA,112510.00,6003.1082156,N,03017.8152032,E,1,17,0.7,22.129,M,15.996,M,,*55
$GPGGA,112510.20,6003.1082111,N,03017.8152822,E,1,17,0.7,22.114,M,15.996,M,,*53
$GPGGA,112510.40,6003.1082029,N,03017.8153787,E,1,17,0.7,22.117,M,15.996,M,,*5D
$GPGGA,112510.60,6003.1082043,N,03017.8154603,E,1,17,0.7,22.144,M,15.996,M,,*5F
$GPGGA,112510.80,6003.1081814,N,03017.8155444,E,1,17,0.7,22.112,M,15.996,M,,*5B
$GPGGA,112511.00,6003.1081667,N,03017.8156356,E,1,17,0.7,22.115,M,15.996,M,,*58
$GPGGA,112511.20,6003.1081468,N,03017.8157322,E,1,17,0.7,22.130,M,15.996,M,,*52
$GPGGA,112511.40,6003.1081179,N,03017.8158271,E,1,17,0.7,22.127,M,15.996,M,,*5F
$GPGGA,112511.60,6003.1080959,N,03017.8158991,E,1,17,0.7,22.130,M,15.996,M,,*55
$GPGGA,112511.80,6003.1080637,N,03017.8159743,E,1,17,0.7,22.106,M,15.996,M,,*59
$GPGGA,112512.00,6003.1080300,N,03017.8160526,E,1,17,0.7,22.112,M,15.996,M,,*5D
$GPGGA,112512.20,6003.1079923,N,03017.8161376,E,1,17,0.7,22.102,M,15.996,M,,*51
$GPGGA,112512.40,6003.1079555,N,03017.8162006,E,1,17,0.7,22.126,M,15.996,M,,*5B
$GPGGA,112512.60,6003.1079070,N,03017.8162785,E,1,17,0.7,22.110,M,15.996,M,,*52
$GPGGA,112512.80,6003.1078617,N,03017.8163636,E,1,17,0.7,22.113,M,15.996,M,,*51
$GPGGA,112513.00,6003.1078128,N,03017.8164433,E,1,17,0.7,22.115,M,15.996,M,,*55
$GPGGA,112513.20,6003.1077600,N,03017.8164963,E,1,17,0.7,22.104,M,15.996,M,,*5D
$GPGGA,112513.40,6003.1077035,N,03017.8165662,E,1,17,0.7,22.085,M,15.996,M,,*5C
$GPGGA,112513.60,6003.1076629,N,03017.8166442,E,1,17,0.7,22.106,M,15.996,M,,*5D
$GPGGA,112513.80,6003.1076000,N,03017.8167205,E,1,17,0.7,22.094,M,15.996,M,,*50
$GPGGA,112514.00,6003.1075431,N,03017.8167763,E,1,17,0.7,22.107,M,15.996,M,,*54
$GPGGA,112514.20,6003.1074783,N,03017.8168214,E,1,16,0.7,22.094,M,15.996,M,,*5D
$GPGGA,112514.40,6003.1074217,N,03017.8168986,E,1,16,0.7,22.111,M,15.996,M,,*5F
$GPGGA,112514.60,6003.1073571,N,03017.8169606,E,1,16,0.7,22.121,M,15.996,M,,*58
$GPGGA,112515.00,6003.1072266,N,03017.8170835,E,1,16,0.7,22.110,M,15.996,M,,*5B
$GPGGA,112515.20,6003.1071546,N,03017.8171188,E,1,16,0.7,22.103,M,15.996,M,,*53
$GPGGA,112515.40,6003.1070918,N,03017.8171720,E,1,16,0.7,22.092,M,15.996,M,,*5E
$GPGGA,112515.60,6003.1070173,N,03017.8172231,E,1,16,0.7,22.094,M,15.996,M,,*59
$GPGGA,112515.80,6003.1069460,N,03017.8172730,E,1,16,0.7,22.096,M,15.996,M,,*5E
$GPGGA,112516.00,6003.1068727,N,03017.8173129,E,1,16,0.7,22.112,M,15.996,M,,*56
$GPGGA,112516.20,6003.1067962,N,03017.8173425,E,1,16,0.7,22.099,M,15.996,M,,*5F
$GPGGA,112516.40,6003.1067247,N,03017.8173820,E,1,16,0.7,22.079,M,15.996,M,,*52
$GPGGA,112516.60,6003.1066376,N,03017.8174189,E,1,16,0.7,22.075,M,15.996,M,,*53
$GPGGA,112516.80,6003.1065730,N,03017.8174596,E,1,16,0.7,22.090,M,15.996,M,,*59
$GPGGA,112517.00,6003.1064911,N,03017.8174958,E,1,16,0.7,22.079,M,15.996,M,,*55
$GPGGA,112517.20,6003.1064072,N,03017.8175165,E,1,16,0.7,22.088,M,15.996,M,,*52
$GPGGA,112517.40,6003.1063236,N,03017.8175576,E,1,16,0.7,22.090,M,15.996,M,,*5E
$GPGGA,112517.60,6003.1062371,N,03017.8175860,E,1,17,0.7,22.071,M,15.996,M,,*5B
$GPGGA,112517.80,6003.1061449,N,03017.8176435,E,1,17,0.7,22.062,M,15.996,M,,*57
$GPGGA,112518.00,6003.1060523,N,03017.8177168,E,1,17,0.7,22.110,M,15.996,M,,*54
$GPGGA,112518.20,6003.1059545,N,03017.8177742,E,1,17,0.7,22.116,M,15.996,M,,*54
$GPGGA,112518.40,6003.1058521,N,03017.8178230,E,1,17,0.7,22.063,M,15.996,M,,*5D
$GPGGA,112518.60,6003.1057475,N,03017.8178934,E,1,17,0.7,22.038,M,15.996,M,,*51
$GPGGA,112518.80,6003.1056574,N,03017.8179872,E,1,17,0.7,22.056,M,15.996,M,,*54
$GPGGA,112519.00,6003.1055595,N,03017.8180867,E,1,17,0.7,22.036,M,15.996,M,,*55
$GPGGA,112519.20,6003.1054498,N,03017.8181961,E,1,17,0.7,22.060,M,15.996,M,,*5F
$GPGGA,112519.40,6003.1053643,N,03017.8183145,E,1,17,0.7,22.036,M,15.996,M,,*55
$GPGGA,112519.60,6003.1052829,N,03017.8184391,E,1,17,0.7,22.045,M,15.996,M,,*5C
$GPGGA,112519.80,6003.1052036,N,03017.8185573,E,1,17,0.7,22.047,M,15.996,M,,*5D
$GPGGA,112520.00,6003.1051344,N,03017.8186770,E,1,17,0.7,22.072,M,15.996,M,,*5E
$GPGGA,112520.20,6003.1050705,N,03017.8188120,E,1,17,0.7,22.051,M,15.996,M,,*50
$GPGGA,112520.40,6003.1050046,N,03017.8189458,E,1,17,0.7,22.041,M,15.996,M,,*5C
$GPGGA,112520.60,6003.1049563,N,03017.8190949,E,1,17,0.7,22.051,M,15.996,M,,*50
$GPGGA,112520.80,6003.1049085,N,03017.8192272,E,1,17,0.7,22.042,M,15.996,M,,*50
$GPGGA,112521.00,6003.1048742,N,03017.8193624,E,1,17,0.7,22.041,M,15.996,M,,*51
$GPGGA,112521.20,6003.1048376,N,03017.8194871,E,1,17,0.7,22.015,M,15.996,M,,*58
$GPGGA,112521.40,6003.1048211,N,03017.8196264,E,1,17,0.7,22.016,M,15.996,M,,*51
$GPGGA,112521.60,6003.1047956,N,03017.8197557,E,1,17,0.7,22.008,M,15.996,M,,*5D
$GPGGA,112521.80,6003.1047948,N,03017.8198780,E,1,17,0.7,22.003,M,15.996,M,,*50
$GPGGA,112522.00,6003.1047860,N,03017.8199946,E,1,17,0.7,22.018,M,15.996,M,,*5F
$GPGGA,112522.20,6003.1047912,N,03017.8201164,E,1,16,0.7,22.028,M,15.996,M,,*51
$GPGGA,112522.40,6003.1047967,N,03017.8202260,E,1,16,0.7,22.024,M,15.996,M,,*5D
$GPGGA,112522.60,6003.1048110,N,03017.8203249,E,1,16,0.7,22.012,M,15.996,M,,*57
$GPGGA,112522.80,6003.1048081,N,03017.8204067,E,1,16,0.7,21.994,M,15.996,M,,*5D
$GPGGA,112523.00,6003.1048343,N,03017.8205016,E,1,16,0.7,22.010,M,15.996,M,,*58
$GPGGA,112523.20,6003.1048554,N,03017.8205849,E,1,16,0.7,22.017,M,15.996,M,,*5F
$GPGGA,112523.40,6003.1048805,N,03017.8206609,E,1,16,0.7,21.983,M,15.996,M,,*5E
$GPGGA,112523.60,6003.1049052,N,03017.8207379,E,1,16,0.7,21.973,M,15.996,M,,*5B
$GPGGA,112523.80,6003.1049238,N,03017.8207886,E,1,16,0.7,21.993,M,15.996,M,,*5E
$GPGGA,112524.00,6003.1049544,N,03017.8208559,E,1,16,0.7,21.987,M,15.996,M,,*58
$GPGGA,112524.20,6003.1049866,N,03017.8209116,E,1,16,0.7,21.964,M,15.996,M,,*54
$GPGGA,112524.40,6003.1050285,N,03017.8209607,E,1,16,0.7,21.979,M,15.996,M,,*56
$GPGGA,112524.60,6003.1050482,N,03017.8210013,E,1,16,0.7,21.973,M,15.996,M,,*54
$GPGGA,112524.80,6003.1050887,N,03017.8210371,E,1,16,0.7,21.969,M,15.996,M,,*5F
$GPGGA,112525.00,6003.1051291,N,03017.8210677,E,1,16,0.7,21.942,M,15.996,M,,*50
$GPGGA,112525.20,6003.1051528,N,03017.8210901,E,1,16,0.7,21.951,M,15.996,M,,*5B
$GPGGA,112525.40,6003.1052013,N,03017.8211042,E,1,16,0.7,21.980,M,15.996,M,,*50
$GPGGA,112525.60,6003.1052458,N,03017.8211322,E,1,16,0.7,21.984,M,15.996,M,,*58
$GPGGA,112525.80,6003.1053073,N,03017.8211506,E,1,16,0.7,21.984,M,15.996,M,,*5A
$GPGGA,112526.00,6003.1053776,N,03017.8211461,E,1,16,0.7,21.973,M,15.996,M,,*5B
$GPGGA,112526.20,6003.1054220,N,03017.8211304,E,1,16,0.7,21.999,M,15.996,M,,*58
$GPGGA,112526.40,6003.1054808,N,03017.8211263,E,1,16,0.7,22.032,M,15.996,M,,*55
$GPGGA,112526.60,6003.1055449,N,03017.8211267,E,1,16,0.7,21.987,M,15.996,M,,*5F
$GPGGA,112526.80,6003.1055986,N,03017.8210985,E,1,17,0.7,21.957,M,15.996,M,,*55
$GPGGA,112527.00,6003.1056703,N,03017.8210633,E,1,17,0.7,21.988,M,15.996,M,,*5C
$GPGGA,112527.20,6003.1057269,N,03017.8210632,E,1,16,0.7,21.997,M,15.996,M,,*58
$GPGGA,112527.40,6003.1057865,N,03017.8210179,E,1,16,0.7,21.977,M,15.996,M,,*5E
$GPGGA,112527.60,6003.1058615,N,03017.8209936,E,1,16,0.7,21.948,M,15.996,M,,*5D
$GPGGA,112527.80,6003.1059306,N,03017.8209518,E,1,16,0.7,21.954,M,15.996,M,,*58
$GPGGA,112528.00,6003.1059925,N,03017.8209237,E,1,16,0.7,21.969,M,15.996,M,,*50
$GPGGA,112528.20,6003.1060676,N,03017.8208929,E,1,17,0.7,21.955,M,15.996,M,,*5A
$GPGGA,112528.40,6003.1061409,N,03017.8208506,E,1,17,0.7,21.968,M,15.996,M,,*58
$GPGGA,112528.60,6003.1062137,N,03017.8208053,E,1,17,0.7,21.963,M,15.996,M,,*5F
$GPGGA,112528.80,6003.1062891,N,03017.8207456,E,1,17,0.7,21.949,M,15.996,M,,*52
$GPGGA,112529.00,6003.1063730,N,03017.8207151,E,1,17,0.7,21.975,M,15.996,M,,*53
$GPGGA,112529.20,6003.1064477,N,03017.8206701,E,1,17,0.7,21.964,M,15.996,M,,*54
$GPGGA,112529.40,6003.1065336,N,03017.8206215,E,1,17,0.7,21.946,M,15.996,M,,*51
$GPGGA,112529.60,6003.1066209,N,03017.8205537,E,1,17,0.7,21.947,M,15.996,M,,*58
$GPGGA,112529.80,6003.1067033,N,03017.8204960,E,1,17,0.7,21.942,M,15.996,M,,*56
$GPGGA,112530.00,6003.1067829,N,03017.8204556,E,1,17,0.7,21.944,M,15.996,M,,*5A
$GPGGA,112530.20,6003.1068796,N,03017.8203959,E,1,17,0.7,21.955,M,15.996,M,,*58
$GPGGA,112530.40,6003.1069689,N,03017.8203358,E,1,17,0.7,21.938,M,15.996,M,,*50
$GPGGA,112530.60,6003.1070520,N,03017.8202835,E,1,17,0.7,21.944,M,15.996,M,,*50
$GPGGA,112530.80,6003.1071483,N,03017.8202279,E,1,17,0.7,21.959,M,15.996,M,,*59
$GPGGA,112531.00,6003.1072366,N,03017.8201652,E,1,17,0.7,21.962,M,15.996,M,,*59
$GPGGA,112531.20,6003.1073239,N,03017.8201111,E,1,17,0.7,21.956,M,15.996,M,,*56
$GPGGA,112531.40,6003.1074114,N,03017.8200578,E,1,17,0.7,21.936,M,15.996,M,,*57
$GPGGA,112531.60,6003.1075066,N,03017.8200252,E,1,17,0.7,21.925,M,15.996,M,,*5D
$GPGGA,112531.80,6003.1075898,N,03017.8199945,E,1,17,0.7,21.943,M,15.996,M,,*54
$GPGGA,112532.00,6003.1076846,N,03017.8199573,E,1,17,0.7,21.931,M,15.996,M,,*53
$GPGGA,112532.20,6003.1077736,N,03017.8199337,E,1,17,0.7,21.941,M,15.996,M,,*59
$GPGGA,112532.40,6003.1078667,N,03017.8199170,E,1,17,0.7,21.933,M,15.996,M,,*51
$GPGGA,112532.60,6003.1079602,N,03017.8199083,E,1,17,0.7,21.940,M,15.996,M,,*58
$GPGGA,112532.80,6003.1080296,N,03017.8199067,E,1,17,0.7,21.942,M,15.996,M,,*51
$GPGGA,112533.00,6003.1080915,N,03017.8199163,E,1,17,0.7,21.926,M,15.996,M,,*5F
$GPGGA,112533.20,6003.1081679,N,03017.8199216,E,1,17,0.7,21.942,M,15.996,M,,*5A
$GPGGA,112533.40,6003.1082291,N,03017.8199459,E,1,17,0.7,21.944,M,15.996,M,,*56
$GPGGA,112533.60,6003.1082891,N,03017.8199682,E,1,17,0.7,21.955,M,15.996,M,,*5A
$GPGGA,112533.80,6003.1083320,N,03017.8199971,E,1,17,0.7,21.957,M,15.996,M,,*55
$GPGGA,112534.00,6003.1083732,N,03017.8200316,E,1,17,0.7,21.938,M,15.996,M,,*5C
$GPGGA,112534.20,6003.1084206,N,03017.8200699,E,1,17,0.7,21.960,M,15.996,M,,*54
$GPGGA,112534.40,6003.1084586,N,03017.8200973,E,1,17,0.7,21.953,M,15.996,M,,*56
$GPGGA,112534.60,6003.1084987,N,03017.8201379,E,1,17,0.7,21.948,M,15.996,M,,*52
$GPGGA,112534.80,6003.1085291,N,03017.8201967,E,1,17,0.7,21.959,M,15.996,M,,*54
$GPGGA,112535.00,6003.1085694,N,03017.8202632,E,1,17,0.7,21.946,M,15.996,M,,*5E
$GPGGA,112535.20,6003.1086241,N,03017.8203346,E,1,17,0.7,21.937,M,15.996,M,,*52
$GPGGA,112535.40,6003.1086549,N,03017.8204110,E,1,17,0.7,21.935,M,15.996,M,,*5F
$GPGGA,112535.60,6003.1087016,N,03017.8205014,E,1,17,0.7,21.959,M,15.996,M,,*5D
$GPGGA,112535.80,6003.1087443,N,03017.8206057,E,1,17,0.7,21.958,M,15.996,M,,*52
$GPGGA,112536.00,6003.1087833,N,03017.8206995,E,1,17,0.7,21.919,M,15.996,M,,*50
$GPGGA,112536.20,6003.1088266,N,03017.8208092,E,1,17,0.7,21.919,M,15.996,M,,*57
$GPGGA,112536.40,6003.1088621,N,03017.8209160,E,1,17,0.7,21.955,M,15.996,M,,*53
$GPGGA,112536.60,6003.1089097,N,03017.8210516,E,1,17,0.7,21.949,M,15.996,M,,*5B
$GPGGA,112536.80,6003.1089435,N,03017.8211762,E,1,17,0.7,21.912,M,15.996,M,,*57
$GPGGA,112537.00,6003.1089800,N,03017.8213063,E,1,17,0.7,21.923,M,15.996,M,,*52
$GPGGA,112537.20,6003.1090304,N,03017.8214
$GPGGA,112537.40,6003.1090664,N,03017.8215845,E,1,17,0.7,21.920,M,15.996,M,,*5B
$GPGGA,112537.60,6003.1090987,N,03017.8217282,E,1,17,0.7,21.922,M,15.996,M,,*5A
$GPGGA,112537.80,6003.1091359,N,03017.8218810,E,1,17,0.7,21.921,M,15.996,M,,*51
$GPGGA,112538.00,6003.1091736,N,03017.8220292,E,1,17,0.7,21.905,M,15.996,M,,*56
$GPGGA,112538.20,6003.1092093,N,03017.8221837,E,1,16,0.7,21.904,M,15.996,M,,*5B
$GPGGA,112538.40,6003.1092429,N,03017.8223371,E,1,16,0.7,21.895,M,15.996,M,,*5A
$GPGGA,112538.60,6003.1092812,N,03017.8225013,E,1,16,0.7,21.927,M,15.996,M,,*55
$GPGGA,112538.80,6003.1093133,N,03017.8226750,E,1,16,0.7,21.900,M,15.996,M,,*56
$GPGGA,112539.00,6003.1093468,N,03017.8228290,E,1,16,0.7,21.897,M,15.996,M,,*5C
$GPGGA,112539.20,6003.1093826,N,03017.8229918,E,1,17,0.7,21.898,M,15.996,M,,*5C
$GPGGA,112539.40,6003.1094224,N,03017.8231681,E,1,17,0.7,21.901,M,15.996,M,,*52
$GPGGA,112539.60,6003.1094442,N,03017.8233192,E,1,17,0.7,21.865,M,15.996,M,,*52
$GPGGA,112539.80,6003.1094652,N,03017.8234573,E,1,17,0.7,21.905,M,15.996,M,,*54
$GPGGA,112540.00,6003.1095011,N,03017.8236020,E,1,17,0.7,21.916,M,15.996,M,,*51
$GPGGA,112540.20,6003.1095211,N,03017.8237354,E,1,17,0.7,21.901,M,15.996,M,,*56
$GPGGA,112540.40,6003.1095413,N,03017.8238594,E,1,17,0.7,21.891,M,15.996,M,,*59
$GPGGA,112540.60,6003.1095464,N,03017.8239723,E,1,17,0.7,21.907,M,15.996,M,,*5A
$GPGGA,112540.80,6003.1095600,N,03017.8240961,E,1,17,0.7,21.892,M,15.996,M,,*5F
$GPGGA,112541.00,6003.1095760,N,03017.8242008,E,1,17,0.7,21.884,M,15.996,M,,*52
$GPGGA,112541.20,6003.1095734,N,03017.8242952,E,1,17,0.7,21.883,M,15.996,M,,*50
$GPGGA,112541.40,6003.1095772,N,03017.8243825,E,1,17,0.7,21.898,M,15.996,M,,*5E
$GPGGA,112541.60,6003.1095749,N,03017.8244706,E,1,17,0.7,21.879,
$GPGGA,112541.80,6003.1095822,N,03017.8245470,E,1,17,0.7,21.874,M,15.996,M,,*50
$GPGGA,112542.00,6003.1095737,N,03017.8246224,E,1,17,0.7,21.864,M,15.996,M,,*55
$GPGGA,112542.20,6003.1095648,N,03017.8246847,E,1,17,0.7,21.865,M,15.996,M,,*50
$GPGGA,112542.40,6003.1095597,N,03017.8247296,E,1,17,0.7,21.871,M,15.996,M,,*55
$GPGGA,112542.60,6003.1095491,N,03017.8247833,E,1,17,0.7,21.860,M,15.996,M,,*55
$GPGGA,112542.80,6003.1095410,N,03017.8248305,E,1,17,0.7,21.861,M,15.996,M,,*52
$GPGGA,112543.00,6003.1095363,N,03017.8248671,E,1,17,0.7,21.879,M,15.996,M,,*57
$GPGGA,112543.20,6003.1095189,N,03017.8248890,E,1,16,0.7,21.858,M,15.996,M,,*50
$GPGGA,112543.40,6003.1095093,N,03017.8249161,E,1,16,0.7,21.855,M,15.996,M,,*57
$GPGGA,112543.60,6003.1094978,N,03017.8249339,E,1,16,0.7,21.837,M,15.996,M,,*53
$GPGGA,112543.80,6003.1094972,N,03017.8249542,E,1,16,0.7,21.844,M,15.996,M,,*59
$GPGGA,112544.00,6003.1094853,N,03017.8249630,E,1,16,0.7,21.830,M,15.996,M,,*51
$GPGGA,112544.20,6003.1094783,N,03017.8249656,E,1,17,0.7,21.816,M,15.996,M,,*54
$GPGGA,112544.40,6003.1094789,N,03017.8249666,E,1,17,0.7,21.832,M,15.996,M,,*5D
$GPGGA,112544.60,6003.1094744,N,03017.8249824,E,1,17,0.7,21.831,M,15.996,M,,*55
$GPGGA,112544.80,6003.1094729,N,03017.8250057,E,1,17,0.7,21.832,M,15.996,M,,*57
$GPGGA,112545.00,6003.1094701,N,03017.8249873,E,1,17,0.7,21.821,M,15.996,M,,*50
$GPGGA,112545.20,6003.1094722,N,03017.8249762,E,1,17,0.7,21.838,M,15.996,M,,*54
$GPGGA,112545.40,6003.1094763,N,03017.8249757,E,1,17,0.7,21.798,M,15.996,M,,*54
$GPGGA,112545.60,6003.1094720,N,03017.8249843,E,1,17,0.7,21.824,M,15.996,M,,*53
$GPGGA,112545.80,6003.1094712,N,03017.8249879,E,1,17,0.7,21.829,M,15.996,M,,*58
$GPGGA,112546.00,6003.1094850,N,03017.8249863,E,1,17,0.7,21.824,M,15.996,M,,*5C
$GPGGA,112546.20,6003.1094847,N,03017.8249799,E,1,16,0.7,21.816,M,15.996,M,,*52
$GPGGA,112546.40,6003.1094821,N,03017.8249804,E,1,16,0.7,21.814,M,15.996,M,,*5D
$GPGGA,112546.60,6003.1094938,N,03017.8249863,E,1,16,0.7,21.830,M,15.996,M,,*51
$GPGGA,112546.80,6003.1094959,N,03017.8249862,E,1,16,0.7,21.793,M,15.996,M,,*5F
$GPGGA,112547.00,6003.1095056,N,03017.8249815,E,1,16,0.7,21.797,M,15.996,M,,*55
$GPGGA,112547.20,6003.1095087,N,03017.8249902,E,1,17,0.7,21.802,M,15.996,M,,*5E
$GPGGA,112547.40,6003.1095060,N,03017.8249912,E,1,17,0.7,21.793,M,15.996,M,,*57
$GPGGA,112547.60,6003.1095188,N,03017.8249973,E,1,17,0.7,21.786,M,15.996,M,,*51
$GPGGA,112547.80,6003.1095207,N,03017.8250022,E,1,17,0.7,21.767,M,15.996,M,,*51
$GPGGA,112548.00,6003.1095242,N,03017.8250071,E,1,17,0.7,21.779,M,15.996,M,,*5E
$GPGGA,112548.20,6003.1095278,N,03017.8250145,E,1,17,0.7,21.765,M,15.996,M,,*5E
$GPGGA,112548.40,6003.1095383,N,03017.8250193,E,1,17,0.7,21.775,M,15.996,M,,*57
$GPGGA,112548.60,6003.1095427,N,03017.8250239,E,1,17,0.7,21.756,M,15.996,M,,*5E
$GPGGA,112548.80,6003.1095479,N,03017.8250322,E,1,17,0.7,21.754,M,15.996,M,,*52
$GPGGA,112549.00,6003.1095550,N,03017.8250427,E,1,17,0.7,21.765,M,15.996,M,,*51
$GPGGA,112549.20,6003.1095578,N,03017.8250545,E,1,17,0.7,21.763,M,15.996,M,,*5A
$GPGGA,112549.40,6003.1095624,N,03017.8250553,E,1,17,0.7,21.759,M,15.996,M,,*58
$GPGGA,112549.60,6003.1095729,N,03017.8250588,E,1,17,0.7,21.727,M,15.996,M,,*59
$GPGGA,112549.80,6003.1095788,N,03017.8250784,E,1,17,0.7,21.736,M,15.996,M,,*52
$GPGGA,112550.00,6003.1095698,N,03017.8250864,E,1,17,0.7,21.724,M,15.996,M,,*50
$GPGGA,112550.20,6003.1095723,N,03017.8250808,E,1,17,0.7,21.710,M,15.996,M,,*5E
$GPGGA,112550.40,6003.1095825,N,03017.8250883,E,1,17,0.7,21.707,M,15.996,M,,*54
$GPGGA,112550.60,6003.1095873,N,03017.8251046,E,1,17,0.7,21.694,M,15.996,M,,*5E
$GPGGA,112550.80,6003.1095891,N,03017.8251090,E,1,17,0.7
$GPGGA,112551.00,6003.1095872,N,03017.8251124,E,1,17,0.7,21.675,M,15.996,M,,*52
$GPGGA,112551.20,6003.1095881,N,03017.8251181,E,1,16,0.7,21.679,M,15.996,M,,*5E
$GPGGA,112551.40,6003.1095928,N,03017.8251226,E,1,16,0.7,21.675,M,15.996,M,,*58
$GPGGA,112551.60,6003.1095981,N,03017.8251332,E,1,16,0.7,21.659,M,15.996,M,,*53
$GPGGA,112551.80,6003.1096080,N,03017.8251366,E,1,16,0.7,21.654,M,15.996,M,,*5A
$GPGGA,112552.00,6003.1096045,N,03017.8251407,E,1,16,0.7,21.643,M,15.996,M,,*5E
$GPGGA,112552.20,6003.1096098,N,03017.8251414,E,1,16,0.7,21.641,M,15.996,M,,*5C
$GPGGA,112552.40,6003.1096193,N,03017.8251228,E,1,16,0.7,21.655,M,15.996,M,,*5C
$GPGGA,112552.60,6003.1096334,N,03017.8251094,E,1,16,0.7,21.648,M,15.996,M
$GPGGA,112552.80,6003.1096496,N,03017.8250936,E,1,16,0.7,21.626,M,15.996,M,,*51
$GPGGA,112553.00,6003.1096695,N,03017.8250744,E,1,16,0.7,21.626,M,15.996,M,,*52
$GPGGA,112553.20,6003.1096844,N,03017.8250460,E,1,16,0.7,21.639,M,15.996,M,,*59
$GPGGA,112553.40,6003.1096989,N,03017.8250293,E,1,16,0.7,21.633,M,15.996,M,,*5F
$GPGGA,112553.60,6003.1097224,N,03017.8249867,E,1,16,0.7,21.631,M,15.996,M,,*5B
$GPGGA,112553.80,6003.1097422,N,03017.8249511,E,1,16,0.7,21.612,M,15.996,M,,*58
$GPGGA,112554.00,6003.1097594,N,03017.8249268,E,1,16,0.7,21.612,M,15.996,M,,*52
$GPGGA,112554.20,6003.1097728,N,03017.8248993,E,1,16,0.7,21.616,M,15.996,M,,*5F
$GPGGA,112554.40,6003.1097895,N,03017.8248561,E,1,16,0.7,21.616,M,15.996,M,,*51
$GPGGA,112554.60,6003.1098089,N,03017.8248050,E,1,16,0.7,21.609,M,15.996,M,,*50
$GPGGA,112554.80,6003.1098271,N,03017.8247682,E,1,16,0.7,21.599,M,15.996,M,,*57
$GPGGA,112555.00,6003.1098367,N,03017.8247315,E,1,16,0.7,21.613,M,15.996,M,,*52
$GPGGA,112555.20,6003.1098539,N,03017.8246852,E,1,16,0.7,21.603,M,15.996,M,,*55
$GPGGA,112555.40,6003.1098710,N,03017.8246342,E,1,16,0.7,21.600,M,15.996,M,,*53
$GPGGA,112555.60,6003.1098821,N,03017.8245761,E,1,16,0.7,21.610,M,15.996,M,,*5B
$GPGGA,112555.80,6003.1098899,N,03017.8245368,E,1,16,0.7,21.613,M,15.996,M,,*58
$GPGGA,112556.00,6003.1098967,N,03017.8244960,E,1,16,0.7,21.604,M,15.996,M,,*56
$GPGGA,112556.20,6003.1099011,N,03017.8244435,E,1,16,0.7,21.625,M,15.996,M,,*53
$GPGGA,112556.40,6003.1099117,N,03017.8243886,E,1,16,0.7,21.619,M,15.996,M,,*5E
$GPGGA,112556.60,6003.1099142,N,03017.8243504,E,1,16,0.7,21.599,M,15.996,M,,*50
$GPGGA,112556.80,6003.1099216,N,03017.8243203,E,1,16,0.7,21.583,M,15.996,M,,*57
$GPGGA,112557.00,6003.1099247,N,03017.8242826,E,1,16,0.7,21.599,M,15.996,M,,*5D
$GPGGA,112557.20,6003.1099271,N,03017.8242397,E,1,16,0.7,21.600,M,15.996,M,,*58
$GPGGA,112557.40,6003.1099312,N,03017.8242112,E,1,16,0.7,21.600,M,15.996,M,,*55
$GPGGA,112557.60,6003.1099388,N,03017.8241808,E,1,16,0.7,21.600,M,15.996,M,,*55
$GPGGA,112557.80,6003.1099449,N,03017.8241552,E,1,16,0.7,21.609,M,15.996,M,,*5A
$GPGGA,112558.00,6003.1099477,N,03017.8241229,E,1,16,0.7,21.588,M,15.996,M,,*51
$GPGGA,112558.20,6003.1099499,N,03017.8240866,E,1,16,0.7,21.581,M,15.996,M,,*5A
$GPGGA,112558.40,6003.1099496,N,03017.8240579,E,1,16,0.7,21.585,M,15.996,M,,*54
$GPGGA,112558.60,6003.1099536,N,03017.8240287,E,1,16,0.7,21.577,M,15.996,M,,*56
$GPGGA,112558.80,6003.1099648,N,03017.8239978,E,1,16,0.7,21.566,M,15.996,M,,*57
$GPGGA,112559.00,6003.1099717,N,03017.8239683,E,1,16,0.7,21.565,M,15.996,M,,*5D
$GPGGA,112559.20,6003.1099698,N,03017.8239443,E,1,16,0.7,21.576,M,15.996,M,,*55
$GPGGA,112559.40,6003.1099707,N,03017.8239137,E,1,16,0.7,21.574,M,15.996,M,,*50
$GPGGA,112559.60,6003.1099775,N,03017.8238923,E,1,16,0.7,21.561,M,15.996,M,,*5F
$GPGGA,112559.80,6003.1099860,N,03017.8238610,E,1,16,0.7,21.561,M,15.996,M,,*55
$GPGGA,112600.00,6003.1099903,N,03017.8238275,E,1,16,0.7,21.555,M,15.996,M,,*56
$GPGGA,112600.20,6003.1099957,N,03017.8238051,E,1,16,0.7,21.563,M,15.996,M,,*54
$GPGGA,112600.40,6003.1099951,N,03017.8237834,E,1,16,0.7,21.578,M,15.996,M,,*5A
$GPGGA,112600.80,6003.1100092,N,03017.8237224,E,1,16,0.7,21.556,M,15.996,M,,*56
$GPGGA,112601.00,6003.1100211,N,03017.8237001,E,1,16,0.7,21.563,M,15.996,M,,*55
$GPGGA,112601.20,6003.1100184,N,03017.8236784,E,1,17,0.7,21.563,M,15.996,M,,*52
$GPGGA,112601.40,6003.1100149,N,03017.8236539,E,1,17,0.7,21.556,M,15.996,M,,*57
$GPGGA,112601.60,6003.1100300,N,03017.8236226,E,1,17,0.7,21.558,M,15.996,M,,*5D
$GPGGA,112601.80,6003.1100388,N,03017.8236057,E,1,17,0.7,21.565,M,15.996,M,,*59
$GPGGA,112602.00,6003.1100384,N,03017.8235826,E,1,17,0.7,21.562,M,15.996,M,,*54
$GPGGA,112602.20,6003.1100400,N,03017.8235541,E,1,17,0.7,21.564,M,15.996,M,,*57
$GPGGA,112602.40,6003.1100451,N,03017.8235248,E,1,17,0.7,21.551,M,15.996,M,,*5D
$GPGGA,112602.60,6003.1100557,N,03017.8235021,E,1,17,0.7,21.553,M,15.996,M,,*57
$GPGGA,112602.80,6003.1100626,N,03017.8234788,E,1,17,0.7,21.554,M,15.996,M,,*5E
$GPGGA,112603.00,6003.1100631,N,03017.8234524,E,1,17,0.7,21.579,M,15.996,M,,*5A
$GPGGA,112603.20,6003.1100605,N,03017.8234294,E,1,16,0.7,21.575,M,15.996,M,,*5E
$GPGGA,112603.40,6003.1100679,N,03017.8234040,E,1,16,0.7,21.554,M,15.996,M,,*5B
$GPGGA,112603.60,6003.1100773,N,03017.8233866,E,1,16,0.7,21.560,M,15.996,M,,*5E
$GPGGA,112603.80,6003.1100809,N,03017.8233508,E,1,16,0.7,21.559,M,15.996,M,,*5D
$GPGGA,112604.00,6003.1100822,N,03017.8233282,E,1,16,0.7,21.559,M,15.996,M,,*5E
$GPGGA,112604.20,6003.1100834,N,03017.8233118,E,1,17,0.7,21.567,M,15.996,M,,*57
$GPGGA,112604.40,6003.1100927,N,03017.8232972,E,1,17,0.7,21.567,M,15.996,M,,*57
$GPGGA,112604.60,6003.1100969,N,03017.8232622,E,1,17,0.7,21.549,M,15.996,M,,*59
$GPGGA,112604.80,6003.1100940,N,03017.8232316,E,1,17,0.7,21.529,M,15.996,M,,*58
$GPGGA,112605.00,6003.1100998,N,03017.8232167,E,1,17,0.7,21.528,M,15.996,M,,*51
$GPGGA,112605.20,6003.1101091,N,03017.8232053,E,1,17,0.7,21.528,M,15.996,M,,*54
$GPGGA,112605.40,6003.1101094,N,03017.8231829,E,1,17,0.7,21.530,M,15.996,M,,*58
$GPGGA,112605.60,6003.1101081,N,03017.8231637,E,1,17,0.7,21.522,M,15.996,M,,*5C
$GPGGA,112605.80,6003.1101247,N,03017.8231335,E,1,17,0.7,21.504,M,15.996,M,,*59
$GPGGA,112606.00,6003.1101320,N,03017.8231189,E,1,17,0.7,21.514,M,15.996,M,,*56
$GPGGA,112606.20,6003.1101254,N,03017.8231014,E,1,16,0.7,21.524,M,15.996,M,,*51
$GPGGA,112606.40,6003.1101283,N,03017.8230868,E,1,16,0.7,21.517,M,15.996,M,,*5F
$GPGGA,112606.60,6003.1101394,N,03017.8230608,E,1,16,0.7,21.505,M,15.996,M,,*51
$GPGGA,112606.80,6003.1101460,N,03017.8230303,E,1,16,0.7,21.494,M,15.996,M,,*54
$GPGGA,112607.00,6003.1101431,N,03017.8230141,E,1,16,0.7,21.502,M,15.996,M,,*53
$GPGGA,112607.20,6003.1101516,N,03017.8230015,E,1,16,0.7,21.484,M,15.996,M,,*5A
$GPGGA,112607.40,6003.1101542,N,03017.8229806,E,1,16,0.7,21.481,M,15.996,M,,*5A
$GPGGA,112607.60,6003.1101592,N,03017.8229552,E,1,16,0.7,21.493,M,15.996,M,,*5A
$GPGGA,112607.80,6003.1101668,N,03017.8229411,E,1,16,0.7,21.492,M,15.996,M,,*55
$GPGGA,112608.00,6003.1101781,N,03017.8229346,E,1,16,0.7,21.471,M,15.996,M,,*5C
$GPGGA,112608.20,6003.1101790,N,03017.8229121,E,1,16,0.7,21.480,M,15.996,M,,*53
$GPGGA,112608.40,6003.1101778,N,03017.8229000,E,1,16,0.7,21.480,M,15.996,M,,*51
$GPGGA,112608.60,6003.1101884,N,03017.8228900,E,1,16,0.7,21.468,M,15.996,M,,*51
$GPGGA,112608.80,6003.1101961,N,03017.8228694,E,1,16,0.7,21.452,M,15.996,M,,*5E
$GPGGA,112609.00,6003.1101971,N,03017.8228403,E,1,16,0.7,21.461,M,15.996,M,,*5A
$GPGGA,112609.20,6003.1102048,N,03017.8228394,E,1,16,0.7,21.467,M,15.996,M,,*57
$GPGGA,112609.40,6003.1102089,N,03017.8228349,E,1,17,0.7,21.441,M,15.996,M,,*59
$GPGGA,112609.60,6003.1102131,N,03017.8228105,E,1,17,0.7,21.453,M,15.996,M,,*50
$GPGGA,112609.80,6003.1102153,N,03017.8227846,E,1,17,0.7,21.434,M,15.996,M,,*5A
$GPGGA,112610.00,6003.1102309,N,03017.8227870,E,1,17,0.7,21.446,M,15.996,M,,*57
$GPGGA,112610.20,6003.1102356,N,03017.8227804,E,1,17,0.7,21.453,M,15.996,M,,*58
$GPGGA,112610.40,6003.1102331,N,03017.8227622,E,1,17,0.7,21.455,M,15.996,M,,*53
$GPGGA,112610.60,6003.1102444,N,03017.8227430,E,1,17,0.7,21.463,M,15.996,M,,*50
$GPGGA,112610.80,6003.1102535,N,03017.8227351,E,1,17,0.7,21.431,M,15.996,M,,*5E
$GPGGA,112611.00,6003.1102556,N,03017.8227277,E,1,17,0.7,21.443,M,15.996,M,,*52
$GPGGA,112611.20,6003.1102585,N,03017.8227063,E,1,16,0.7,21.456,M,15.996,M,,*5C
$GPGGA,112611.40,6003.1102668,N,03017.8226925,E,1,16,0.7,21.444,M,15.996,M,,*53
$GPGGA,112611.60,6003.1102718,N,03017.8227040,E,1,16,0.7,21.446,M,15.996,M,,*5E
$GPGGA,112611.80,6003.1102729,N,03017.8226846,E,1,16,0.7,21.446,M,15.996,M,,*5D
$GPGGA,112612.00,6003.1102870,N,03017.8226498,E,1,16,0.7,21.433,M,15.996,M,,*58
$GPGGA,112612.20,6003.1102914,N,03017.8226558,E,1,16,0.7,21.421,M,15.996,M,,*57
$GPGGA,112612.40,6003.1102950,N,03017.8226634,E,1,17,0.7,21.418,M,15.996,M,,*53
$GPGGA,112612.60,6003.1102976,N,03017.8226443,E,1,17,0.7,21.434,M,15.996,M,,*59
$GPGGA,112612.80,6003.1103051,N,03017.8226130,E,1,17,0.7,21.437,M,15.996,M,,*58
$GPGGA,112613.00,6003.1103239,N,03017.8226104,E,1,17,0.7,21.425,M,15.996,M,,*59
$GPGGA,112613.20,6003.1103274,N,03017.8226161,E,1,16,0.7,21.427,M,15.996,M,,*52
$GPGGA,112613.40,6003.1103172,N,03017.8226081,E,1,16,0.7,21.424,M,15.996,M,,*5D
$GPGGA,112613.60,6003.1103328,N,03017.8225812,E,1,16,0.7,21.432,M,15.996,M,,*54
$GPGGA,112613.80,6003.1103507,N,03017.8225727,E,1,16,0.7,21.414,M,15.996,M,,*5C
$GPGGA,112614.00,6003.1103525,N,03017.8225686,E,1,16,0.7,21.401,M,15.996,M,,*5D
$GPGGA,112614.20,6003.1103483,N,03017.8225626,E,1,16,0.7,21.408,M,15.996,M,,*51
$GPGGA,112614.40,6003.1103629,N,03017.8225475,E,1,16,0.7,21.414,M,15.996,M,,*5C
$GPGGA,112614.60,6003.1103812,N,03017.8225398,E,1,16,0.7,21.415,M,15.996,M,,*5D
$GPGGA,112614.80,6003.1103778,N,03017.8225407,E,1,16,0.7,21.411,M,15.996,M,,*55
$GPGGA,112615.00,6003.1103815,N,03017.8225322,E,1,16,0.7,21.411,M,15.996,M,,*58
$GPGGA,112615.20,6003.1103935,N,03017.8225137,E,1,16,0.7,21.399,M,15.996,M,,*58
$GPGGA,112615.40,6003.1104075,N,03017.8225095,E,1,16,0.7,21.409,M,15.996,M,,*53
$GPGGA,112615.60,6003.1104083,N,03017.8225147,E,1,16,0.7,21.416,M,15.996,M,,*58
$GPGGA,112615.80,6003.1104128,N,03017.8225104,E,1,16,0.7,21.427,M,15.996,M,,*53
$GPGGA,112616.00,6003.1104231,N,03017.8224965,E,1,16,0.7,21.427,M,15.996,M,,*5D
$GPGGA,112616.20,6003.1104332,N,03017.8224811,E,1,16,0.7,21.419,M,15.996,M,,*52
$GPGGA,112616.40,6003.1104406,N,03017.8224803,E,1,16,0.7,21.419,M,15.996,M,,*57
$GPGGA,112616.60,6003.1104469,N,03017.8224888,E,1,16,0.7,21.432,M,15.996,M,,*56
$GPGGA,112616.80,6003.1104527,N,03017.8224726,E,1,16,0.7,21.423,M,15.996,M,,*58
$GPGGA,112617.00,6003.1104642,N,03017.8224732,E,1,16,0.7,21.436,M,15.996,M,,*50
$GPGGA,112617.20,6003.1104704,N,03017.8224687,E,1,16,0.7,21.437,M,15.996,M,,*5F
$GPGGA,112617.40,6003.1104718,N,03017.8224506,E,1,16,0.7,21.420,M,15.996,M,,*58
$GPGGA,112617.60,6003.1104806,N,03017.8224468,E,1,16,0.7,21.436,M,15.996,M,,*54
$GPGGA,112617.80,6003.1104889,N,03017.8224596,E,1,16,0.7,21.452,M,15.996,M,,*5F
$GPGGA,112618.00,6003.1104972,N,03017.8224503,E,1,16,0.7,21.437,M,15.996,M,,*52
$GPGGA,112618.20,6003.1105025,N,03017.8224209,E,1,16,0.7,21.441,M,15.996,M,,*56
$GPGGA,112618.40,6003.1105044,N,03017.8
$GPGGA,112618.60,6003.1105134,N,03017.8224241,E,1,17,0.7,21.417,M,15.996,M,,*5D
$GPGGA,112618.80,6003.1105223,N,03017.8224101,E,1,17,0.7,21.433,M,15.996,M,,*57
$GPGGA,112619.00,6003.1105320,N,03017.8224063,E,1,17,0.7,21.434,M,15.996,M,,*5E
$GPGGA,112619.20,6003.1105381,N,03017.8224089,E,1,17,0.7,21.433,M,15.996,M,,*54
$GPGGA,112619.40,6003.1105431,N,03017.8223988,E,1,17,0.7,21.409,M,15.996,M,,*58
$GPGGA,112619.60,6003.1105485,N,03017.8223837,E,1,17,0.7,21.405,M,15.996,M,
$GPGGA,112619.80,6003.1105543,N,03017.8223880,E,1,17,0.7,21.428,M,15.996,M,,*5A
$GPGGA,112620.00,6003.1105650,N,03017.8223986,E,1,17,0.7,21.432,M,15.996,M,,*55
$GPGGA,112620.20,6003.1105737,N,03017.8223745,E,1,17,0.7,21.434,M,15.996,M,,*50
$GPGGA,112620.40,6003.1105775,N,03017.8223615,E,1,17,0.7,21.425,M,15.996,M,,*54
$GPGGA,112620.60,6003.1105854,N,03017.8223729,E,1,17,0.7,21.428,M,15.996,M,,*59
$GPGGA,112620.80,6003.1105971,N,03017.8223565,E,1,17,0.7,21.432,M,15.996,M,,*50
$GPGGA,112621.00,6003.1105970,N,03017.8223410,E,1,17,0.7,21.423,M,15.996,M,,*5B
$GPGGA,112621.20,6003.1106078,N,03017.8223642,E,1,17,0.7,21.437,M,15.996,M,,*5B
$GPGGA,112621.40,6003.1106183,N,03017.8223593,E,1,17,0.7,21.441,M,15.996,M,,*56
$GPGGA,112621.60,6003.1106226,N,03017.8223200,E,1,17,0.7,21.419,M,15.996,M,,*58
$GPGGA,112621.80,6003.1106286,N,03017.8223282,E,1,17,0.7,21.427,M,15.996,M,,*5B
$GPGGA,112622.00,6003.1106382,N,03017.8223434,E,1,17,0.7,21.423,M,15.996,M,,*5A
$GPGGA,112622.20,6003.1106489,N,03017.8223230,E,1,16,0.7,21.425,M,15.996,M,,*51
$GPGGA,112622.40,6003.1106496,N,03017.8223014,E,1,16,0.7,21.405,M,15.996,M,,*5F
$GPGGA,112622.60,6003.1106552,N,03017.8223093,E,1,16,0.7,21.406,M,15.996,M,,*58
$GPGGA,112622.80,6003.1106666,N,03017.8223112,E,1,16,0.7,21.408,M,15.996,M,,*54
$GPGGA,112623.00,6003.1106736,N,03017.8222877,E,1,16,0.7,21.412,M,15.996,M,,*59
$GPGGA,112623.20,6003.1106782,N,03017.8222791,E,1,17,0.7,21.416,M,15.996,M,,*56
$GPGGA,112623.40,6003.1106900,N,03017.8222984,E,1,17,0.7,21.421,M,15.996,M,,*5A
$GPGGA,112623.60,6003.1106967,N,03017.8222734,E,1,17,0.7,21.402,M,15.996,M,,*5D
$GPGGA,112623.80,6003.1106996,N,03017.8222500,E,1,17,0.7,21.390,M,15.996,M,,*54
$GPGGA,112624.00,6003.1107066,N,03017.8222713,E,1,17,0.7,21.426,M,15.996,M,,*56
$GPGGA,112624.20,6003.1107160,N,03017.8222709,E,1,17,0.7,21.400,M,15.996,M,,*5C
$GPGGA,112624.40,6003.1107205,N,03017.8222484,E,1,18,0.6,21.384,M,15.996,M,,*59
$GPGGA,112624.60,6003.1107233,N,03017.8222370,E,1,18,0.6,21.379,M,15.996,M,,*50
$GPGGA,112624.80,6003.1107298,N,03017.8222410,E,1,18,0.6,21.382,M,15.996,M,,*5A
$GPGGA,112625.00,6003.1107406,N,03017.8222387,E,1,18,0.6,21.376,M,15.996,M,,*50
$GPGGA,112625.20,6003.1107509,N,03017.8222254,E,1,18,0.6,21.364,M,15.996,M,,*50
$GPGGA,112625.40,6003.1107522,N,03017.8222206,E,1,18,0.6,21.355,M,15.996,M,,*5A
$GPGGA,112625.60,6003.1107579,N,03017.8222120,E,1,18,0.6,21.339,M,15.996,M,,*5B
$GPGGA,112625.80,6003.1107707,N,03017.8222042,E,1,18,0.6,21.339,M,15.996,M,,*5B
$GPGGA,112626.00,6003.1107751,N,
$GPGGA,112626.20,6003.1107762,N,03017.8221970,E,1,18,0.6,21.335,M,15.996,M,,*56
$GPGGA,112626.40,6003.1107874,N,03017.8221816,E,1,18,0.6,21.324,M,15.996,M,,*59
$GPGGA,112626.60,6003.1107965,N,03017.8221849,E,1,18,0.6,21.324,M,15.996,M,,*50
$GPGGA,112626.80,6003.1108049,N,03017.8221878,E,1,18,0.6,21.332,M,15.996,M,,*53
$GPGGA,112627.00,6003.1108079,N,03017.8221808,E,1,18,0.6,21.326,M,15.996,M,,*5B
$GPGGA,112627.20,6003.1108266,N,03017.8221745,E,1,18,0.6,21.324,M,15.996,M,,*51
$GPGGA,112627.40,6003.1108304,N,03017.8221699,E,1,18,0.6,21.327,M,15.996,M,,*51
$GPGGA,112627.60,6003.1108373,N,03017.8221627,E,1,18,0.6,21.322,M,15.996,M,,*53
$GPGGA,112627.80,6003.1108484,N,03017.8221675,E,1,18,0.6,21.313,M,15.996,M,,*57
$GPGGA,112628.00,6003.1108566,N,03017.8221644,E,1,18,0.6,21.322,M,15.996,M,,*5D
$GPGGA,112628.20,6003.1108609,N,03017.8221489,E,1,17,0.7,21.323,M,15.996,M,,*59
$GPGGA,112628.40,6003.1108732,N,03017.8221417,E,1,17,0.7,21.311,M,15.996,M,,*50
$GPGGA,112628.60,6003.1108849,N,03017.8221505,E,1,17,0.7,21.313,M,15.996,M,,*51
$GPGGA,112628.80,6003.1108915,N,03017.8221436,E,1,17,0.7,21.314,M,15.996,M,,*51
$GPGGA,112629.00,6003.1108944,N,03017.8221282,E,1,17,0.7,21.307,M,15.996,M,,*57
$GPGGA,112629.20,6003.1109104,N,03017.8221179,E,1,17,0.7,21.289,M,15.996,M,,*58
$GPGGA,112629.40,6003.1109162,N,03017.8221276,E,1,18,0.6,21.300,M,15.996,M,,*5C
$GPGGA,112629.60,6003.1109286,N,03017.8221264,E,1,18,0.6,21.309,M,15.99
$GPGGA,112629.80,6003.1109393,N,03017.8221204,E,1,18,0.6,21.304,M,15.996,M,,*5D
$GPGGA,112630.00,6003.1109462,N,03017.8221204,E,1,18,0.6,21.296,M,15.996,M,,*5E
$GPGGA,112630.20,6003.1109562,N,03017.8221149,E,1,18,0.6,21.278,M,15.996,M,,*57
$GPGGA,112630.40,6003.1109633,N,03017.8221089,E,1,18,0.6,21.287,M,15.996,M,,*5B
$GPGGA,112630.60,6003.1109743,N,03017.8221079,E,1,18,0.6,21.287,M,15.996,M,,*50
$GPGGA,112630.80,6003.1109861,N,03017.8221123,E,1,18,0.6,21.295,M,15.996,M,,*5C
$GPGGA,112631.00,6003.1109946,N,03017.8221078,E,1,18,0.6,21.276,M,15.996,M,,*53
$GPGGA,112631.20,6003.1110027,N,03017.8220939,E,1,17,0.7,21.279,M,15.996,M,,*5B
$GPGGA,112631.40,6003.1110149,N,03017.8220917,E,1,17,0.7,21.275,M,15.996,M,,*54
$GPGGA,112631.60,6003.1110275,N,03017.8220970,E,1,17,0.7,21.289,M,15.996,M,,*58
$GPGGA,112631.80,6003.1110351,N,03017.8221053,E,1,17,0.7,21.289,M,15.996,M,,*58
$GPGGA,112632.00,6003.1110460,N,03017.8220867,E,1,17,0.7,21.271,M,15.996,M,,*5F
$GPGGA,112632.20,6003.1110539,N,03017.8220751,E,1,17,0.7,21.261,M,15.996,M,,*5B
$GPGGA,112632.40,6003.1110596,N,03017.8220830,E,1,18,0.6,21.259,M,15.996,M,,*55
$GPGGA,112632.60,6003.1110768,N,03017.8220856,E,1,18,0.6,21.258,M,15.996,M,,*55
$GPGGA,112632.80,6003.1110851,N,03017.8220807,E,1,18,0.6,21.260,M,15.996,M,,*51
$GPGGA,112633.00,6003.1110926,N,03017.8220669,E,1,18,0.6,21.241,M,15.996,M,,*5C
$GPGGA,112633.20,6003.1111089,N,03017.8220684,E,1,17,0.7,21.245,M,15.996,M,,*5A
$GPGGA,112633.40,6003.1111103,N,03017.8220708,E,1,17,0.7,21.219,M,15.996,M,,*53
$GPGGA,112633.60,6003.1111180,N,03017.8220666,E,1,17,0.7,21.235,M,15.996,M,,*5D
$GPGGA,112633.80,6003.1111354,N,03017.8220654,E,1,17,0.7,21.232,M,15.996,M,,*5E
$GPGGA,112634.00,6003.1111449,N,03017.8220602,E,1,17,0.7,21.211,M,15.996,M,,*58
$GPGGA,112634.20,6003.1111499,N,03017.8220520,E,1,17,0.7,21.191,M,15.996,M,,*5F
$GPGGA,112634.40,6003.1111556,N,03017.8220543,E,1,18,0.6,21.206,M,15.996,M,,*5D
$GPGGA,112634.60,6003.1111746,N,03017.8220647,E,1,18,0.6,21.216,M,15.996,M,,*5A
$GPGGA,112634.80,6003.1111857,N,03017.8220455,E,1,18,0.6,21.203,M,15.996,M,,*5E
$GPGGA,112635.00,6003.1111940,N,03017.8220390,E,1,18,0.6,21.212,M,15.996,M,,*5E
$GPGGA,112635.20,6003.1112097,N,03017.8220495,E,1,17,0.7,21.202,M,15.996,M,,*51
$GPGGA,112635.40,6003.1112172,N,03017.8220486,E,1,17,0.7,21.197,M,15.996,M,,*50
